longitude,latitude,mode,mode_name,mode_num
123.417133,41.868337,地铁,三台子(地铁站),2
123.40308,41.917793,地铁,航空航天大学(地铁站),2
123.453579,41.743061,地铁,奥体中心(地铁站),2-9
123.396798,41.793772,地铁,沈阳站(地铁站),1
123.435977,41.817355,地铁,沈阳北站(地铁站),2
123.305686,41.794186,地铁,于洪广场(地铁站),1
123.370794,41.794093,地铁,铁西广场(地铁站),1-9
123.504308,41.80812,地铁,黎明广场(地铁站),1
123.461001,41.801344,地铁,中街(地铁站),1
123.432863,41.792236,地铁,青年大街(地铁站),1-2
123.434229,41.804497,地铁,市府广场(地铁站),2
123.419906,41.789396,地铁,南市场(地铁站),1
123.435871,41.784718,地铁,青年公园(地铁站),2
123.447255,41.796947,地铁,怀远门(地铁站),1
123.438257,41.811745,地铁,金融中心(地铁站),2
123.406644,41.789528,地铁,太原街(地铁站),1
123.435319,41.773193,地铁,工业展览馆(地铁站),2
123.429258,41.822728,地铁,岐山路(地铁站),2
123.470596,41.802831,地铁,东中街(地铁站),1
123.380508,41.796508,地铁,云峰北街(地铁站),1
123.429047,41.833682,地铁,中医药大学(地铁站),2
123.435895,41.760047,地铁,市图书馆(地铁站),2
123.383861,41.81322,地铁,重型文化广场(地铁站),9
123.378755,41.804706,地铁,北二路(地铁站),9
123.386749,41.821366,地铁,皇姑屯(地铁站),9
123.42424,41.839395,地铁,北陵公园(地铁站),2
123.441016,41.753209,地铁,五里河(地铁站),2
123.488594,41.808405,地铁,滂江街(地铁站),1
123.380562,41.768483,地铁,胜利南街(地铁站),9
123.365836,41.787634,地铁,兴华公园(地铁站),9
123.418892,41.847476,地铁,新乐遗址(地铁站),2
123.36126,41.781587,地铁,沈辽路(地铁站),9
123.388938,41.842252,地铁,怒江公园(地铁站),9
123.356113,41.800291,地铁,保工街(地铁站),1
123.358797,41.772247,地铁,滑翔(地铁站),9
123.418239,41.855421,地铁,陵西(地铁站),2
123.467941,41.743596,地铁,天成街(地铁站),9
123.441295,41.734121,地铁,彩霞街(地铁站),9
123.343559,41.803726,地铁,启工街(地铁站),1
123.430201,41.731686,地铁,金阳大街(地铁站),9
123.421603,41.729802,地铁,榆树台(地铁站),9
123.456491,41.731345,地铁,营盘街(地铁站),2
123.485068,41.741192,地铁,朗日街(地铁站),9
123.410242,41.72715,地铁,长白南(地铁站),9
123.344612,41.760797,地铁,吉力湖街(地铁站),9
123.331973,41.805072,地铁,重工街(地铁站),1
123.501572,41.744319,地铁,长青南街(地铁站),9
123.347148,41.750949,地铁,大通湖街(地铁站),9
123.461955,41.719789,地铁,世纪大厦(地铁站),2
123.372388,41.726716,地铁,浑河站(地铁站),9
123.516113,41.747294,地铁,建筑大学(地铁站),9
123.361366,41.732254,地铁,曹仲(地铁站),9
123.309668,41.801583,地铁,迎宾路(地铁站),1
123.415607,41.8864,地铁,医学院(地铁站),2
123.47168,41.709422,地铁,白塔河路(地铁站),2
123.305135,41.781118,地铁,开发大道(地铁站),1
123.482502,41.707485,地铁,全运路(地铁站),2
123.294099,41.771936,地铁,张士(地铁站),1
123.409145,41.907692,地铁,师范大学(地铁站),2
123.277277,41.766026,地铁,四号街(地铁站),1
123.25934,41.765381,地铁,七号街(地铁站),1
123.242537,41.765395,地铁,中央大街(地铁站),1
123.230509,41.765462,地铁,十三号街(地铁站),1
123.39044,41.829748,地铁,淮河街沈医二院(地铁站),9
123.393711,41.929389,地铁,辽宁大学(地铁站),2
123.398316,41.93661,地铁,人杰湖公园(地铁站),2
123.408584,41.946825,地铁,蒲河路(地铁站),2
123.405529,41.956447,地铁,蒲田路(地铁站),2
123.363655,42.038017,公交,加油站(公交站),
122.837029,41.994556,公交,湖广公园南门(公交站),
123.455414,41.614414,公交,河沿村(公交站),
123.355919,42.020161,公交,创业(公交站),
123.308731,42.07296,公交,单家(公交站),
123.354256,42.736027,公交,荣鹏商厦(公交站),
123.418259,42.015392,公交,75中学(公交站),
123.166634,41.969627,公交,老边乡(公交站),
123.325745,41.930908,公交,平罗三村(公交站),
123.658714,41.720608,公交,招呼站(公交站),
123.491196,41.596237,公交,沙河村(公交站),
123.360329,42.048252,公交,金立得驾校(公交站),
123.326851,42.061104,公交,大屯(公交站),
123.348106,42.047337,公交,小营子(公交站),
122.82959,42.006954,公交,西北街派出所(公交站),
123.23806,42.000969,公交,双树(公交站),
123.336365,41.622368,公交,东大产业园(公交站),
123.205482,41.769089,公交,中色泵业(公交站),
123.496017,42.016289,公交,高力屯村(公交站),
123.329605,42.059345,公交,叶家(公交站),
123.516945,41.600239,公交,上头子(公交站),
123.421661,42.015499,公交,财落(公交站),
123.61113,41.646271,公交,李相镇(公交站),
123.362762,42.037682,公交,尹家牌楼(公交站),
123.381958,41.583218,公交,北乱木村(公交站),
123.216469,41.887596,公交,曹台道口(公交站),
123.515709,41.603462,公交,空心砖厂(招呼站)(公交站),
123.354317,42.733784,公交,税务局(公交站),
123.686127,41.99361,公交,董楼子(公交站),
123.559494,41.6968,公交,东陵殡仪馆(公交站),
123.520363,41.584454,公交,小朱庄子(公交站),
123.355263,42.725197,公交,第一城(公交站),
123.353539,42.742798,公交,康平影剧院(公交站),
123.346664,41.68539,公交,迎春街冬青街(公交站),
123.209564,41.777054,公交,沈车劳服(公交站),
123.32505,41.669399,公交,桃李面包厂站(公交站),
123.532684,41.942322,公交,伍尔特工业园(公交站),
122.842949,41.998611,公交,临时站(公交站),
123.208244,41.896015,公交,东大林(公交站),
123.237679,41.898884,公交,马三家火车站(公交站),
122.67347,41.520756,公交,电管站(公交站),
123.334045,41.879921,公交,看守所(公交站),
123.729477,41.865543,公交,晓仁境村(公交站),
123.338898,41.630051,公交,铝合金加工厂(公交站),
123.354317,42.734215,公交,邮局(公交站),
122.829437,41.987915,公交,文荟苑(公交站),
123.339714,41.656536,公交,河畔一期北门(公交站),
123.293922,42.08242,公交,盘古台(公交站),
123.373596,41.981064,公交,新开道(公交站),
123.392593,41.955685,公交,弓匠村(公交站),
123.51619,41.573692,公交,食品厂(临时站)(公交站),
123.505409,41.604191,公交,桃木西(招呼站)(公交站),
123.181168,41.832733,公交,诺木珲(公交站),
123.516808,41.573864,公交,食品厂(公交站),
123.344139,41.881897,公交,文大路沈通高速(公交站),
123.35408,42.739498,公交,县医院(公交站),
123.392029,41.723911,公交,浑南西路胜利大街站(公交站),
123.4384,41.79884,公交,市红十字会医院站(公交站),
123.483772,41.833073,公交,上园小区(临时站)(公交站),
123.571976,41.695801,公交,施家寨(公交站),
123.352585,41.973473,公交,富发小卖店(公交站),
123.326363,41.662292,公交,公安局(公交站),
123.686508,41.681923,公交,招呼站(祝家政府)(公交站),
123.207916,42.000671,公交,盛北家苑(公交站),
123.391815,41.819111,公交,同江街步云山路站(公交站),
123.508545,41.840816,公交,观泉路五金建材市场站(公交站),
123.394028,41.815666,公交,皇姑屯火车站站(公交站),
123.414108,41.87257,公交,赤山路黄河大街站(公交站),
123.399147,41.837749,公交,怒江街新开河(公交站),
123.355011,41.834885,公交,东北汽配城东(公交站),
123.428421,41.811676,公交,哈尔滨路北京街(公交站),
123.399315,41.836876,公交,怒江北街新开河站(公交站),
123.399055,41.741646,公交,长白中路长白三街(临时站)(公交站),
123.509689,41.810471,公交,新东二街和睦路(公交站),
123.480614,41.864532,公交,轩业四路望花街(临时站)(公交站),
123.397858,41.742496,公交,长白三街长白中路(公交站),
123.407562,41.734268,公交,仙岛南路南京街(公交站),
123.323547,41.765388,公交,仙女河北路大通湖街(公交站),
123.320877,41.764679,公交,金龙湖街仙女河北路(公交站),
123.40274,41.730309,公交,长白三街长白南路(公交站),
123.421944,41.686039,公交,百荷湾(白塔堡)(公交站),
123.500626,41.769321,公交,方青北路方荣街(临时站)(公交站),
123.450172,41.715839,公交,浑南区政府(公交站),
123.440437,41.840626,公交,武功山小区(公交站),
123.366211,41.790955,公交,南七路贵和街(公交站),
123.388985,41.77634,公交,太原街南十马路站(公交站),
123.387039,41.830528,公交,太平庄站(公交站),
123.45491,41.787968,公交,热闹路小南街(五爱市场东)(公交站),
123.478333,41.817654,公交,辽沈二街如意三街(公交站),
123.384087,41.762096,公交,万和花园站(公交站),
123.386864,41.766479,公交,砂南路砂阳路站(公交站),
123.40155,41.819714,公交,皇姑公安分局站(公交站),
123.40078,41.77396,公交,市第六医院站(公交站),
123.428612,41.811401,公交,哈尔滨路青年北大街站(公交站),
123.438866,41.812622,公交,惠工广场西站(公交站),
123.483406,41.831837,公交,上园小区站(公交站),
123.468414,41.822701,公交,洮昌小区站(公交站),
123.3461,41.778458,公交,沈辽路齐贤街站(公交站),
123.411659,41.819359,公交,碧塘公园南站(公交站),
123.366211,41.81377,公交,保工街北二路站(公交站),
123.434276,41.82172,公交,北站北广场站(公交站),
123.414635,41.804527,公交,西塔东站(公交站),
123.405685,41.74873,公交,翰逸华园站(公交站),
123.44622,41.731155,公交,融城时代站(公交站),
123.412354,41.731819,公交,和安街长白南路站(公交站),
123.446259,41.80727,公交,令闻街教场路(公交站),
123.441132,41.771351,公交,陆军总院(沈阳二中)(公交站),
123.404198,41.749359,公交,长白北路长白四街站(公交站),
123.427353,41.762135,公交,华强广场站(公交站),
123.428711,41.807598,公交,市人大站(公交站),
123.456795,41.834721,公交,鸭绿江街崇山路站(公交站),
123.443245,41.833237,公交,华商晨报站(公交站),
123.399925,41.798901,公交,胜利大街北二马路站(公交站),
123.413033,41.819805,公交,碧塘公园西站(公交站),
123.501099,41.773102,公交,方方园小区(公交站),
123.426788,41.802227,公交,八一公园东站(公交站),
123.430115,41.771595,公交,展览馆站(公交站),
123.448364,41.764488,公交,宏伟新都站(公交站),
123.428062,41.777687,公交,鲁迅美术学院站(公交站),
123.425911,41.787445,公交,第七医院站(公交站),
123.397789,41.769463,公交,市第六医院南站(公交站),
123.472801,41.80481,公交,津桥路小什字街站(公交站),
123.415863,41.788544,公交,十一纬路招商银行站(公交站),
123.484764,41.821934,公交,临时站(公交站),
123.419121,41.804714,公交,市检察院站(公交站),
123.427795,41.772835,公交,盛京医院南湖院区站(公交站),
123.361977,41.78989,公交,中国家具城(公交站),
123.334633,41.820305,公交,东北制药厂站(公交站),
123.351974,41.778854,公交,艳粉街沈辽路站(公交站),
123.385597,41.74411,公交,万科城站(公交站),
123.467155,41.831192,公交,恒驰物流北门(公交站),
123.406479,41.916668,公交,唐轩公馆(正良二路)(公交站),
123.332924,41.824543,公交,小北一路重工街(公交站),
123.376411,41.801701,公交,兴华街北三路(公交站),
123.473351,41.775036,公交,泉园一路(临时站)(公交站),
123.36573,41.787617,公交,兴华公园东(公交站),
123.402931,41.784611,公交,体育广场站(公交站),
123.419983,41.835526,公交,省实验中学站(公交站),
123.392128,41.772717,公交,南京街南十马路站(公交站),
123.337662,41.765415,公交,宏发华城(公交站),
123.361198,41.808762,公交,北三路保工街(公交站),
123.367607,41.83065,公交,昆山路前塔湾站(公交站),
123.319412,41.76873,公交,新型建材厂站(公交站),
123.316994,41.767193,公交,三隆碧桂园站(公交站),
123.292305,41.75996,公交,沈辽路大明湖街站(公交站),
123.453743,41.797077,公交,故宫西华门(公交站),
123.488045,41.870834,公交,沈阳职业技术学院(临时站)(公交站),
123.396477,41.821613,公交,华山路怒江街(公交站),
123.411324,41.816353,公交,华山路长江街(公交站),
123.435707,41.814999,公交,沈阳北站站前(公交站),
123.406372,41.771133,公交,南湖公园西门南(公交站),
123.409225,41.788536,公交,中华路(公交站),
123.40155,41.733246,公交,长白三街仙岛南路(公交站),
123.399094,41.730858,公交,兴岛路长白三街(公交站),
123.369102,41.811306,公交,齐贤街北二路(公交站),
123.372612,41.815964,公交,沈阳国际纺织服装城西(公交站),
123.454826,41.840885,公交,铁山路鸭绿江街(公交站),
123.449364,41.829697,公交,陵园街宁山路(公交站),
123.383377,41.826664,公交,中海寰宇天下站(公交站),
123.359337,41.826107,公交,向工街明廉路站(公交站),
123.431572,41.797817,公交,青年大街中山路(公交站),
123.501305,41.844444,公交,大东区政务服务中心(公交站),
123.449486,41.744049,公交,浦江苑(公交站),
123.483253,41.807697,公交,龙之梦客运站(公交站),
123.435646,41.808414,公交,惠工街哈尔滨路(公交站),
123.452393,41.78421,公交,沈阳五爱(公交站),
123.442589,41.786903,公交,五爱西区西(公交站),
123.371315,41.770813,公交,滑翔路凌空二街西(公交站),
123.436836,41.765236,公交,佳兆业广场(公交站),
123.442795,41.776131,公交,地王国际花园(公交站),
123.389763,41.816719,公交,皇姑屯事件博物馆(公交站),
123.322563,41.790733,公交,强工二街南十二西路(公交站),
123.399742,41.76812,公交,和平大街砂阳路(公交站),
123.327972,41.778343,公交,长客西站(公交站),
123.543121,42.050457,公交,城建锦泉蓝湾(公交站),
123.35276,42.74799,公交,贺炯街(公交站),
123.436302,41.965317,公交,进步新居(公交站),
123.206352,41.763889,公交,十六号街开发大道(公交站),
123.566811,41.961365,公交,沈阳利源轨道交通(公交站),
123.5812,41.743507,公交,古城子西(公交站),
123.537086,41.94664,公交,小古城街蒲平路(公交站),
123.458008,41.655499,公交,智慧三街创新路(公交站),
123.182854,41.698181,公交,马贝村(公交站),
123.643082,42.023258,公交,柳条河(公交站),
123.404976,42.12336,公交,拉塔湖(公交站),
123.384224,42.001373,公交,大辛二村(公交站),
123.467247,42.135643,公交,达连(公交站),
123.326569,41.661507,公交,消防队(公交站),
123.352219,41.624462,公交,中意橱柜(公交站),
123.372055,41.933914,公交,宏达锻造(公交站),
123.539467,41.498901,公交,黑牛(公交站),
123.341225,41.661633,公交,青年桥站(公交站),
123.211166,41.764542,公交,机车车辆厂(公交站),
123.3619,41.821285,公交,粮食市场站(公交站),
123.402939,41.776764,公交,和平大街南七马路站(公交站),
123.413033,41.819809,公交,碧塘公园(公交站),
123.375847,41.790436,公交,云峰街建设大路站(公交站),
123.41378,41.797848,公交,中山广场东站(公交站),
123.404823,41.915237,公交,唐轩公馆站(公交站),
123.338478,41.79575,公交,启工机械学校站(公交站),
123.373367,41.981495,公交,道义工业园(公交站),
123.485535,41.66674,公交,创新路桃仙街(公交站),
123.259705,42.053436,公交,光明村(公交站),
123.21283,41.78027,公交,菁华商业管理学校(公交站),
123.536926,41.943108,公交,欧园会议中心(公交站),
123.658424,41.779266,公交,深井子医院(公交站),
123.385307,41.651707,公交,反腐倡廉展览馆(公交站),
123.630486,41.811359,公交,东湖学校(公交站),
123.334526,41.938351,公交,平马路平罗中街(公交站),
123.468819,41.769081,公交,出租汽车公司南(公交站),
123.346451,41.814178,公交,启工街北三路(公交站),
123.333153,41.828362,公交,重工北街(公交站),
123.482574,41.804543,公交,津桥路滂江街(公交站),
123.383675,41.764866,公交,砂南路砂山街站(公交站),
123.405106,41.818508,公交,华山路珠江街站(公交站),
123.45002,41.807468,公交,太清宫北站(公交站),
123.359726,41.813988,公交,北二路奖工街站(公交站),
123.416183,41.77803,公交,回民中学站(公交站),
123.369156,41.766521,公交,凌空二街南滑翔路站(公交站),
123.464493,41.793598,公交,小河沿站(公交站),
123.436371,41.83292,公交,儿童医院站(公交站),
123.384438,41.803581,公交,北二路云峰街站(公交站),
123.335228,41.747768,公交,南阳湖街汪河路站(公交站),
123.452408,41.813648,公交,小北关街团结路(公交站),
123.348343,41.818428,公交,启工街北二路(公交站),
123.365067,41.794083,公交,南六路勋望街(公交站),
123.471046,41.81089,公交,小什字街中学堂路(公交站),
123.402245,41.786934,公交,中山公园西站(公交站),
123.330589,41.769825,公交,吉力湖街仙女河北路(公交站),
123.346024,41.79388,公交,南九路卫工街站(公交站),
123.377831,41.823116,公交,碧流河街玉山路(公交站),
123.449188,41.831707,公交,陵园街崇山路(公交站),
123.437828,41.7967,公交,药王庙路大西电子市场(公交站),
123.334091,41.778694,公交,仙女湖公园北站(公交站),
123.609428,42.02808,公交,清水西街(公交站),
123.367485,41.652706,公交,雪花啤酒厂(公交站),
123.676956,41.699715,公交,招呼站(公交站),
123.256668,42.0508,公交,西三台子(公交站),
123.461517,41.953712,公交,尚柏奥莱(公交站),
123.379242,41.922066,公交,省实验沈北合作校(公交站),
123.329224,41.651772,公交,丁香街沙柳路(公交站),
123.414391,41.791809,公交,和平大街九纬路(公交站),
123.455002,41.792999,公交,市环保局(公交站),
123.45578,41.654636,公交,国家大学科技城管委会(公交站),
123.385864,41.957119,公交,地铁惠民新城(公交站),
123.389069,41.742764,公交,高炮一师西站(公交站),
123.442032,41.78978,公交,奉天街北热闹路站(公交站),
123.38253,41.799274,公交,云峰街北三路站(公交站),
123.418152,41.818573,公交,第四医院南站(公交站),
123.337608,41.767395,公交,吉力湖街仙女河路站(公交站),
123.461067,41.793026,公交,大南门东站(公交站),
123.422455,41.804832,公交,北市场站(公交站),
123.344986,41.785728,公交,保工街南十二路站(公交站),
123.398438,41.847668,公交,格林阳光站(公交站),
123.512978,41.871662,公交,榆林大街38号(公交站),
123.276855,41.87862,公交,小三家子(公交站),
123.435982,41.832642,公交,市儿童医院(公交站),
123.4645,41.795238,公交,大东门站(公交站),
123.551376,42.049114,公交,辽宁北汤温泉(公交站),
123.458229,41.916218,公交,蒲盛路陵园北街(公交站),
123.504303,42.113876,公交,黄家村(公交站),
123.334427,41.659443,公交,区水利局(公交站),
123.334541,41.659531,公交,水利局(公交站),
123.568848,41.846397,公交,后陵食杂店(公交站),
123.674896,42.018776,公交,马刚(公交站),
123.589241,41.515594,公交,马耳山(公交站),
123.352608,42.142414,公交,石佛二村(公交站),
123.353447,41.932152,公交,上蒲河西(公交站),
123.317612,42.067173,公交,兴光(公交站),
123.369843,41.799709,公交,北四路贵和街(公交站),
123.461166,41.772972,公交,南塔客运站(东行)(公交站),
123.477127,41.835106,公交,上园路合作街站(公交站),
123.479858,41.828262,公交,北方客运公司站(公交站),
123.391571,41.787922,公交,胜利大街南五马路站(公交站),
123.40152,41.791759,公交,中华路太原街站(公交站),
123.411743,41.788357,公交,马路湾北站(公交站),
123.331108,41.779827,公交,赞工街沈新路站(公交站),
123.436737,41.787083,公交,热闹路顺通路(公交站),
123.421532,41.782085,公交,十四纬路五经街站(公交站),
123.471817,41.801022,公交,天龙家园站(公交站),
123.456856,41.841412,公交,剑苑小区站(公交站),
123.434692,41.799488,公交,中山路杏林街站(公交站),
123.440948,41.795883,公交,奉天街药王庙路站(公交站),
123.355591,41.769573,公交,东北机电五金城站(公交站),
123.466927,41.797314,公交,大东车库(临时站)(公交站),
123.390541,41.836468,公交,水榭花都站(公交站),
123.37294,41.865192,公交,松山路西江街(公交站),
123.406952,41.865486,公交,长江街北固山路站(公交站),
123.461487,41.769337,公交,文化路天坛一街(公交站),
123.388527,41.796623,公交,兴工街北三路站(公交站),
123.402145,41.916737,公交,航空航天大学地铁口(公交站),
123.380074,41.787792,公交,南六路兴工街(公交站),
123.414116,41.982552,公交,太平洋工业园(公交站),
122.855553,41.970058,公交,八里堡站(公交站),
123.348244,41.934235,公交,长安驾校(公交站),
123.611557,41.646301,公交,李相(公交站),
123.352737,41.912842,公交,五彩阳光城(一期)(公交站),
123.166008,41.738079,公交,沈西五东路细河九北街(公交站),
123.352913,42.746964,公交,华通利商业城(公交站),
123.428749,42.016979,公交,财落医院(公交站),
123.383659,41.631683,公交,赵家甸子村(公交站),
123.685966,41.68367,公交,招呼站(公交站),
123.394997,41.815773,公交,皇姑屯火车站(公交站),
123.354355,42.736423,公交,客运站(公交站),
123.515541,41.83036,公交,市艺术学校(公交站),
123.29847,41.73148,公交,谟家小学(公交站),
123.325378,41.674122,公交,长城佳园站(公交站),
123.357567,42.706745,公交,东关屯(公交站),
123.608078,41.666939,公交,沈李线路口(公交站),
123.36985,41.959942,公交,惠生新城(公交站),
123.354942,42.715839,公交,小康(公交站),
123.360626,42.701687,公交,东关学校(公交站),
122.820381,42.003075,公交,新铁佳园(公交站),
123.133614,41.791428,公交,胡台新城(公交站),
123.721161,41.863541,公交,砖瓦村(公交站),
123.301132,42.077934,公交,稻梦空间(公交站),
123.257896,41.762093,公交,澳海7号公馆(公交站),
123.213188,41.750702,公交,辽宁交通轨道学院(公交站),
123.41304,41.930183,公交,香缇澜山(公交站),
123.626701,41.685127,公交,辽宁特教师范学校(公交站),
123.36541,42.01218,公交,采摘园(公交站),
123.629883,41.734303,公交,招呼站(公交站),
123.530807,42.04908,公交,贵州路北斗街(临时站)(公交站),
123.506927,41.796391,公交,东塔站(公交站),
123.513344,41.784489,公交,上木厂站(公交站),
123.447403,41.948811,公交,龙湖源著西门(公交站),
123.426231,41.926754,公交,七星大街沈北路(公交站),
123.213196,41.750408,公交,辽宁轨道交通学院(公交站),
123.345245,41.664948,公交,区中心医院(公交站),
123.534775,42.050083,公交,新城子房产大厦(公交站),
123.344818,41.661022,公交,房产大厦(公交站),
123.369652,42.669888,公交,姜家窝堡(公交站),
123.376595,42.658585,公交,拉马屯(公交站),
123.396255,41.925175,公交,辽宁大学道义校区(公交站),
123.479713,41.842632,公交,辽美印刷厂站(公交站),
123.416992,41.959831,公交,方特欢乐世界南门(公交站),
123.424767,41.738884,公交,仙岛北路南堤路(公交站),
123.27639,41.765968,公交,四号街地铁站(公交站),
123.511833,41.940853,公交,交校北门(公交站),
123.43042,41.682961,公交,白塔一街全运路站(公交站),
123.522041,41.746597,公交,建筑大学东门(公交站),
123.509438,41.694561,公交,盛世园田居营销中心(公交站),
123.387947,41.895821,公交,怒江北街西(公交站),
123.368904,41.677914,公交,金钱松路蕙兰二街(公交站),
123.430145,41.895557,公交,荣盛城(公交站),
123.384819,41.762737,公交,河北街二校(公交站),
123.524193,42.049477,公交,新城子大市场南门(公交站),
123.512161,41.807434,公交,新光红缨小区(公交站),
123.431618,41.739578,公交,南堤路金阳大街(公交站),
123.446098,41.744019,公交,南堤路三义街(公交站),
123.349602,41.864277,公交,小转弯(公交站),
123.384392,41.901974,公交,方溪湖(公交站),
123.551826,41.820862,公交,辽宁省农业技术学校(公交站),
123.472336,41.762058,公交,银河丽湾(公交站),
123.389954,41.873051,公交,省武警总队(公交站),
123.507416,41.754395,公交,南堤路文乐街(公交站),
123.394699,41.740677,公交,长白中路长白二街(公交站),
123.286232,41.801987,公交,东平湖街和泰新城(公交站),
123.404625,41.893936,公交,青城山路京沈西二线(公交站),
123.565247,41.69553,公交,元科蜡厂(公交站),
123.331444,41.768314,公交,仙女河北路(公交站),
123.426094,41.734528,公交,名流幸福小区站(公交站),
123.478172,41.858997,公交,东方欧博城站(公交站),
123.427673,41.731224,公交,铸造厂站(公交站),
123.345642,41.825417,公交,北一路肇工街站(公交站),
123.409218,41.907658,公交,沈阳师范大学站(公交站),
123.470444,41.898918,公交,金山二手市场(公交站),
123.521736,41.820045,公交,南东贸路八家子(公交站),
123.269112,41.754379,公交,家宁花园站(公交站),
123.25016,41.753078,公交,十三号路八号街(公交站),
123.55851,41.776081,公交,格林阳光城(公交站),
123.350739,41.857391,公交,元江街松山路(公交站),
123.483902,41.850571,公交,望花新村(公交站),
123.441254,41.688351,公交,高深路智慧大街(公交站),
123.406052,41.9133,公交,正良二路(公交站),
123.34137,41.934586,公交,宝能水岸康城(公交站),
123.231468,41.828529,公交,爱国家园(公交站),
123.581161,41.95644,公交,海吉星物流园(公交站),
123.29689,42.088902,公交,四龙湾(公交站),
123.331635,41.624134,公交,明腾科技(公交站),
123.554314,41.698433,公交,泉园办事处(公交站),
123.52343,41.578529,公交,塔山公墓(公交站),
123.432213,42.145451,公交,高坎村(公交站),
123.204216,42.002537,公交,解放北(公交站),
123.4608,41.848782,公交,富山花园西门(公交站),
123.488899,41.827412,公交,东辽街联合路(公交站),
123.378693,41.830112,公交,塔湾邮局站(公交站),
123.462921,41.763977,公交,临时站(公交站),
123.476791,41.819939,公交,辽沈二街东北大马路站(公交站),
123.479507,41.815849,公交,辽沈二街工农路站(公交站),
123.345688,41.798538,公交,南七路卫工街(卫工一校)(公交站),
123.431519,41.786823,公交,大西菜行站(公交站),
123.377228,41.828247,公交,昆山路塔湾东站(公交站),
123.349548,41.791771,公交,保工街南十路站(公交站),
123.376648,41.804779,公交,小北二路兴华街站(公交站),
123.344292,41.796295,公交,南八路卫工街站(公交站),
123.328056,41.797234,公交,建业路重工街站(公交站),
123.352859,41.780315,公交,沈辽路艳粉街站(公交站),
123.358772,41.78067,公交,沈辽路兴华街站(公交站),
123.366302,41.781925,公交,沈辽路云峰街站(公交站),
123.340729,41.799755,公交,市中心医院站(公交站),
123.353737,41.814426,公交,卫工街北二路站(公交站),
123.41655,41.781036,公交,省水利厅站(公交站),
123.37059,41.783516,公交,云峰街沈辽路站(公交站),
123.337425,41.750317,公交,碧桂园银河城站(公交站),
123.442947,41.780827,公交,风雨坛街西滨河路站(公交站),
123.423592,41.757885,公交,新世界花园站(公交站),
123.412346,41.828094,公交,长江街宁山路站(公交站),
123.456886,41.849831,公交,富丽阳光站(公交站),
123.456993,41.845493,公交,中驰汽贸站(公交站),
123.411011,41.842865,公交,沙河子小区站(公交站),
123.411232,41.808464,公交,储备局站(公交站),
123.413185,41.817909,公交,家具广场站(公交站),
123.337433,41.765228,公交,临河街宏发华城站(公交站),
123.443405,41.73465,公交,浑南西路夹河街站(公交站),
123.393806,41.854652,公交,万科四季花城北一门(公交站),
123.432533,41.803719,公交,市府广场西站(公交站),
123.424126,41.791584,公交,沈阳消防烧伤医院东(公交站),
123.355759,41.822903,公交,北一路卫工街站(公交站),
123.423424,41.790215,公交,沈阳消防烧伤医院(公交站),
123.429512,41.791542,公交,十一纬路二经街站(公交站),
123.485405,41.808372,公交,龙之梦亚太城站(公交站),
123.408829,41.784565,公交,中山公园东站(公交站),
123.436249,41.805126,公交,市中级法院站(公交站),
123.38736,41.807434,公交,和平家园站(公交站),
123.471634,41.796555,公交,小什字街大东路(临时站)(公交站),
123.377296,41.775486,公交,天华医药站(公交站),
123.367882,41.772381,公交,滑翔路腾飞一街站(公交站),
123.338409,41.793766,公交,启工二校站(公交站),
123.350632,41.782543,公交,工业大学兴顺校区站(公交站),
123.384766,41.778908,公交,胜利大街南九马路站(公交站),
123.460045,41.679501,公交,省博物馆站(公交站),
123.387718,41.739517,公交,越秀星汇蓝海花园站(公交站),
123.418152,41.818573,公交,第四医院南门(公交站),
123.33522,41.780231,公交,肇工街沈辽路(公交站),
123.410522,41.782253,公交,十三纬路和平大街(公交站),
123.486366,41.770901,公交,长青街文化东路(公交站),
123.407425,41.85825,公交,陵西二小区站(公交站),
123.398521,41.857197,公交,教师公寓站(公交站),
123.386635,41.820938,公交,淮河街天山路站(公交站),
123.397873,41.8536,公交,北苑明珠站(公交站),
123.407272,41.860649,公交,五彩新村站(公交站),
123.343887,41.824558,公交,肇工街北一路(公交站),
123.469727,41.790836,公交,万泉公园西门(公交站),
123.367416,41.793095,公交,南六路兴华街(公交站),
123.334488,41.792725,公交,南十一路肇工街(公交站),
123.341736,41.795792,公交,马壮街南九路(公交站),
123.362221,41.785458,公交,南十路兴华街(公交站),
123.422089,41.838928,公交,辽宁大厦南站(公交站),
123.420578,41.828407,公交,黄河大街宁山路站(公交站),
123.553185,41.767258,公交,祝科东二街浑南大道南二路(公交站),
123.370781,41.79171,公交,兴华街(临时站)(公交站),
123.516945,41.818104,公交,南东贸路八家子街(公交站),
123.377571,41.784142,公交,南八路兴工街(公交站),
123.36763,41.787502,公交,南八路兴华街(公交站),
123.442329,41.766846,公交,五爱街文萃路(公交站),
123.417244,41.867752,公交,松山路(公交站),
123.390251,41.798679,公交,兴工街北二路站(公交站),
123.383598,41.790115,公交,兴工街建设大路站(公交站),
123.524643,41.808186,公交,保利海棠花园(公交站),
123.386971,41.825253,公交,东北玩具城(公交站),
123.339447,41.791965,公交,南十一路马壮街(公交站),
123.348396,41.818527,公交,北启工街北二路(公交站),
123.380455,41.762745,公交,玉屏路砂川街(公交站),
123.367325,41.761593,公交,汪河路镜泊湖街(公交站),
123.440659,41.83189,公交,松花江街(公交站),
123.343201,41.809006,公交,北四路启工街站(公交站),
123.374817,41.797615,公交,北四路兴华街站(公交站),
123.339905,41.778961,公交,西部货运中心北站(公交站),
123.397209,41.820499,公交,黄浦江街华山路(公交站),
123.506859,41.745422,公交,沈音学院南校区南(公交站),
123.37643,41.832101,公交,塔湾家乐福(公交站),
123.466797,41.834045,公交,九一八历史博物馆(公交站),
123.438354,41.81567,公交,沈阳北站(公交站),
123.383415,41.654045,公交,辽宁反腐倡廉展览馆(公交站),
123.346405,41.653339,公交,海棠街沙柳路(公交站),
123.303078,42.031563,公交,文化广场(公交站),
122.749405,41.521915,公交,盛世御景(公交站),
123.465385,41.60696,公交,新立社区(招呼站)(公交站),
123.476181,42.053123,公交,张家堡(公交站),
123.391266,42.077232,公交,小黑台子(公交站),
123.402847,42.065815,公交,新民(公交站),
123.357544,42.070026,公交,朝五中(公交站),
123.364365,42.030315,公交,花卉(公交站),
122.85302,42.006634,公交,蜡化厂(第九小学)(公交站),
123.253128,41.820587,公交,后民(公交站),
123.342773,42.000313,公交,新农村西(公交站),
123.604546,41.672192,公交,高八寨(公交站),
123.355751,41.682774,公交,临时站(公交站),
123.45723,41.943748,公交,蒲南路孝汉东二街(公交站),
123.37178,41.770668,公交,生日城站(公交站),
123.342537,41.78043,公交,保工街南十四路站(公交站),
123.434631,41.811142,公交,华府天地南站(公交站),
123.373642,41.770859,公交,凌空二街滑翔路站(公交站),
123.362152,41.770149,公交,万科花园站(公交站),
123.335243,41.793236,公交,肇工街南十路站(公交站),
123.404755,41.816341,公交,珠江街天山路站(公交站),
123.494965,41.796944,公交,二四五医院站(公交站),
123.653465,41.81987,公交,球场车站(公交站),
123.578369,41.507881,公交,镇林牧场(公交站),
123.613548,41.739895,公交,招呼站(公交站),
123.356819,41.892609,公交,造化村(公交站),
123.362579,42.690285,公交,高家窝堡(公交站),
123.445068,41.65881,公交,智慧大街创新路(公交站),
123.346825,41.659245,公交,苏家屯妇婴医院(公交站),
123.383873,42.001297,公交,大辛(公交站),
123.434433,41.653889,公交,东软医疗(公交站),
123.30217,41.89135,公交,闸上村(公交站),
123.238518,41.82679,公交,兴盛西(公交站),
123.584572,41.809902,公交,东陵大桥(公交站),
123.405251,41.957565,公交,蒲田路地铁站(公交站),
123.262184,41.758827,公交,六号街十一号路站(公交站),
123.42981,41.931358,公交,蒲新路盛京大街(公交站),
123.431206,41.931515,公交,梧桐苑(公交站),
123.521141,41.946812,公交,沈阳市益民医院(公交站),
123.266579,41.746559,公交,浑河六街4号(公交站),
123.514755,41.923382,公交,鑫宁家园(公交站),
123.517029,41.791004,公交,凌云街(公交站),
123.340607,41.941849,公交,平罗中心校(公交站),
123.46283,41.664452,公交,智慧四街新运河路(公交站),
123.239662,41.825916,公交,中国机床城(公交站),
123.372818,41.823299,公交,食品公司站(公交站),
123.406548,41.820679,公交,昆山路珠江街站(公交站),
123.370453,41.783329,公交,云峰街南九路站(公交站),
123.352242,41.811115,公交,卫工街北三路站(公交站),
123.440132,41.793152,公交,房地产大厦站(公交站),
123.334106,41.811241,公交,美好愿景站(公交站),
123.390755,41.831657,公交,淮河街崇山路站(公交站),
123.365234,41.788528,公交,兴华公园北站(公交站),
123.421265,41.79583,公交,公安医院(公交站),
123.414551,41.802319,公交,沈医二院站(公交站),
123.451218,41.801468,公交,中街鼓楼(公交站),
123.33123,41.791565,公交,沈阳共济爱婴医院(公交站),
123.431664,41.809059,公交,青年北大街哈尔滨路(公交站),
123.302025,41.763283,公交,昆明湖街沈辽路(公交站),
123.35186,41.806877,公交,北四路卫工街站(公交站),
123.254143,41.731312,公交,水木融城(公交站),
123.480171,41.689392,公交,宏运路沈本大街站(公交站),
123.410919,41.916317,公交,沈师大北门(公交站),
123.444016,41.716965,公交,新优街世纪路站(公交站),
123.420349,41.736477,公交,中航城两河流域南门(公交站),
123.326103,41.772675,公交,冶金机械公司站(公交站),
123.34951,41.864281,公交,赤山路元江街(公交站),
123.398384,41.886711,公交,闾山路怒江北街(公交站),
123.48336,42.036098,公交,道树子(公交站),
122.771187,41.558601,公交,辽中火车站(公交站),
123.344101,41.656818,公交,大润发(晚班始发站)(公交站),
123.452126,41.81646,公交,市物价局站(公交站),
123.479431,41.82753,公交,北方客运公司(临时站)(公交站),
123.44838,41.858074,公交,金山北苑(公交站),
123.346016,41.662125,公交,花苑商场(公交站),
123.603905,41.680649,公交,万实路口(公交站),
123.327599,41.663227,公交,区公安局站(公交站),
123.333092,41.66777,公交,桂花街北青松路(公交站),
123.346153,41.677464,公交,绿茵家苑(公交站),
123.28968,41.816856,公交,东平湖路于洪职教中心(公交站),
123.338188,41.936577,公交,平罗中学(公交站),
123.365547,41.896244,公交,文大路(公交站),
123.331573,41.658421,公交,克拉生活广场(公交站),
123.332588,41.654564,公交,卫生局(公交站),
123.344933,41.657326,公交,大润发苏家屯(公交站),
123.330864,41.655148,公交,河畔三期北门(公交站),
123.332077,41.671261,公交,区路灯所(公交站),
123.620216,41.738064,公交,招呼站2(公交站),
123.331619,41.629032,公交,精锐科技(公交站),
123.481331,41.821724,公交,市骨科医院西(公交站),
123.408043,41.822124,公交,珠江街岐山路站(公交站),
123.415482,41.774319,公交,方型广场南站(公交站),
123.477745,41.838852,公交,北大营街南卡门路站(公交站),
123.42791,41.786049,公交,十三纬路三经街站(公交站),
123.40126,41.821972,公交,昆山路荆江街站(公交站),
123.385208,41.790085,公交,振工街建设大路站(公交站),
123.415947,41.7939,公交,和平大街八纬路站(公交站),
123.424919,41.807476,公交,北市场东站(公交站),
123.396843,41.804672,公交,霁虹站(公交站),
123.359741,41.805214,公交,市交通技术学校东站(公交站),
123.384705,41.802132,公交,云峰街北二路站(公交站),
123.443558,41.823227,公交,昆山路松花江街站(公交站),
123.368828,41.817215,公交,第一粮库站(公交站),
123.46357,41.748543,公交,奥林匹克公园(公交站),
123.436844,41.778301,公交,青年公园南站(公交站),
123.427361,41.764084,公交,百脑汇站(公交站),
123.380402,41.786755,公交,兴工街南七路站(公交站),
123.378723,41.783928,公交,兴工街沈辽路站(公交站),
123.450783,41.741207,公交,沈营路浑河堡站(公交站),
123.344475,41.751373,公交,汪河路大通湖街站(公交站),
123.471474,41.763695,公交,文萃路富民街站(公交站),
123.446144,41.793137,公交,市妇幼保健院(公交站),
123.388901,41.805309,公交,虹桥路爱工街站(公交站),
123.480766,41.798008,公交,大东边门站(公交站),
123.476364,41.83614,公交,合作街上园路(公交站),
123.335304,41.800049,公交,肇工街南七路站(公交站),
123.354263,41.859608,公交,湖畔新城(公交站),
123.361984,41.782635,公交,兴华街沈辽路(公交站),
123.409111,41.872334,公交,赤山路川江街站(公交站),
123.398178,41.851315,公交,红田地产站(公交站),
123.485518,41.808488,公交,龙之梦旅游度假中心(公交站),
123.43232,41.814846,公交,北站路青年大街(公交站),
123.380096,41.790241,公交,建设大路兴工街站(公交站),
123.424232,41.799805,公交,中山路三经街(公交站),
123.476463,41.743233,公交,朗云街恒达路(公交站),
123.360847,41.829449,公交,飞跃实验中学站(公交站),
123.471031,41.73547,公交,坤泰新界(临时站)(公交站),
123.391823,41.785278,公交,南五马路胜利大街站(公交站),
123.315208,41.763695,公交,南阳湖街仙女湖北路(公交站),
123.510796,41.573772,公交,陈相三角地(公交站),
123.408142,41.956974,公交,时空东街蒲田路(公交站),
123.340622,41.663689,公交,公园商场站(公交站),
123.529114,41.935192,公交,大古城街蒲裕路(公交站),
123.342773,41.665512,公交,区政府(公交站),
123.660583,41.791801,公交,链条厂(公交站),
123.267006,41.742832,公交,浑河六街十八号路(公交站),
123.422432,41.954094,公交,三盛颐景御园(公交站),
123.356972,41.915623,公交,盛京医院雍森医院(公交站),
123.346825,41.659245,公交,妇婴医院(公交站),
123.375984,41.682079,公交,中兴工商所(公交站),
123.519211,41.832802,公交,东毛君屯(公交站),
123.262093,41.757061,公交,丽水金阳站(公交站),
123.384674,41.770271,公交,砂山体育场站(公交站),
123.382721,41.765659,公交,砂山商店站(公交站),
123.389832,41.828522,公交,淮河街宁山路站(公交站),
123.380264,41.795307,公交,云峰北街(公交站),
123.471558,41.803394,公交,大悦城东站(公交站),
123.493965,41.832108,公交,康福食品站(公交站),
123.441582,41.792168,公交,房地产大厦南站(公交站),
123.374565,41.827179,公交,中海寰宇天下西站(公交站),
123.394073,41.784325,公交,南五马路民族街站(公交站),
123.386765,41.781555,公交,东北汽配商贸中心站(公交站),
123.407074,41.789433,公交,中华路南京街站(公交站),
123.483673,41.828499,公交,联合路东辽街站(公交站),
123.418648,41.797501,公交,水务集团站(公交站),
123.413132,41.785908,公交,二0二医院站(公交站),
123.426399,41.81284,公交,市行政执法局站(公交站),
123.333824,41.794228,公交,南十路肇工街站(公交站),
123.380951,41.781818,公交,沈辽路兴工街站(公交站),
123.39872,41.814522,公交,天山路新安江街站(公交站),
123.39122,41.816364,公交,天山路同江街站(公交站),
123.416702,41.776737,公交,方型广场北站(公交站),
123.448143,41.728741,公交,浑南区医院站(公交站),
123.418724,41.732986,公交,东北气象中心站(公交站),
123.43119,41.735497,公交,临波路金阳大街站(公交站),
123.373589,41.787457,公交,云峰街南七马路站(公交站),
123.451553,41.788139,公交,五爱市场站(公交站),
123.377785,41.8018,公交,铁西区政府站(公交站),
123.412949,41.822037,公交,北行站(公交站),
123.38929,41.854546,公交,万科四季花城北二门(公交站),
123.453743,41.792332,公交,小南门(公交站),
123.435608,41.792938,公交,大西边门站(公交站),
123.487785,41.79763,公交,长安路滂江街站(公交站),
123.38871,41.82608,公交,淮河街昆山路站(公交站),
123.327881,41.825813,公交,小北一路北二路48巷(公交站),
123.347885,41.801121,公交,卫工街建设大路(南)(公交站),
123.361869,41.761963,公交,镜泊湖街汪河北路(公交站),
123.413033,41.78616,公交,二O二医院(公交站),
123.382042,41.809166,公交,兴华街小北一路站(公交站),
123.398323,41.782555,公交,铁路中学站(公交站),
123.420883,41.824997,公交,黄河大街巴山路站(公交站),
123.409363,41.795406,公交,医大一院站(公交站),
123.384361,41.767578,公交,砂阳路砂山街站(公交站),
123.395554,41.80563,公交,兴工街千姿汇站(公交站),
123.312439,41.764263,公交,山东堡站(公交站),
123.302071,41.762043,公交,沈辽路昆明湖街站(公交站),
123.406479,41.916672,公交,正良唐轩公馆(公交站),
123.485306,41.86478,公交,勤生街轩兴四路(临时站)(公交站),
123.430428,41.812275,公交,青年北大街(公交站),
123.493378,41.742653,公交,精神卫生中心(公交站),
123.466782,41.748722,公交,金水花城西(公交站),
123.350372,41.788719,公交,南十一路齐贤街(公交站),
123.482994,41.768635,公交,黄金学院(公交站),
123.385437,41.792358,公交,兴工街北四路站(公交站),
123.445396,41.851479,公交,金山路陵园街(公交站),
123.326065,41.680721,公交,鹏达电器站(公交站),
123.188835,41.836823,公交,沙陀子西(公交站),
123.524033,41.946877,公交,建设北一路虎石台大街(公交站),
123.32534,41.666512,公交,雪松开发区(公交站),
123.411095,41.822746,公交,岐山路北行站(公交站),
123.357666,41.810257,公交,北三路圣工街(公交站),
123.356705,41.786503,公交,景星街南十路(公交站),
123.398819,41.871815,公交,赤山路怒江北街(公交站),
123.399315,41.697296,公交,上河湾(公交站),
123.529114,41.931217,公交,沈北路大古城街(公交站),
123.686958,41.68058,公交,招呼站4(公交站),
123.445526,41.729118,公交,沈营路华园东路站(公交站),
123.443718,41.764915,公交,沈阳教育学院站(公交站),
123.467407,41.763832,公交,天坛小区站(公交站),
123.50248,41.773479,公交,方明街方家栏路(公交站),
123.442871,41.805283,公交,清真寺站(公交站),
123.326767,41.830044,公交,东药宿舍站(公交站),
123.364624,41.785934,公交,兴华街南十路(公交站),
123.351624,41.812119,公交,北三路卫工街(公交站),
123.434746,41.784039,公交,彩电塔(公交站),
123.40657,41.818966,公交,珠江街华山路站(公交站),
123.7192,41.984089,公交,望滨(公交站),
122.682968,41.534088,公交,卡力马(公交站),
123.135643,41.941372,公交,高台(公交站),
123.158714,41.746662,公交,森邦电气(公交站),
123.588516,41.74403,公交,招呼站1(公交站),
123.483322,41.763351,公交,文萃路丰乐二街站(公交站),
123.397362,41.882877,公交,怒江北街辉山路(公交站),
123.342323,41.660706,公交,青年桥东(公交站),
123.287735,41.741467,公交,余粮村(公交站),
123.385277,41.703423,公交,胜利大街九洲湾景汇北(公交站),
123.518166,42.046329,公交,红楼(公交站),
123.610474,42.021721,公交,沈阳市七十八中学(公交站),
123.63588,41.813519,公交,新城管理委员会(公交站),
123.352577,41.969131,公交,沟子沿南(公交站),
123.448975,41.76263,公交,纺织研究院站(公交站),
123.399033,41.691574,公交,红椿路南京街站(公交站),
123.325638,41.746025,公交,北欧云著(公交站),
122.762581,41.509716,公交,添赢汽车城(招呼站)(公交站),
123.452576,42.029366,公交,七家子(公交站),
123.484985,41.659702,公交,创新二路桃仙二街(公交站),
123.658981,41.898468,公交,马宋路下木(公交站),
123.409424,41.962059,公交,七星西街(公交站),
123.48497,41.927624,公交,鸭绿江街蒲昌路(公交站),
123.325615,41.664825,公交,丁香苑站(公交站),
123.604889,42.018017,公交,清东小区(招呼站)(公交站),
123.417618,41.80629,公交,北市场西站(公交站),
123.416168,41.892372,公交,万山路(公交站),
123.472847,41.741272,公交,圣火广场(公交站),
123.267464,41.738766,公交,中法园(公交站),
123.400932,41.765022,公交,盛发花园站(公交站),
123.420776,41.800232,公交,和平大街北七马路站(公交站),
123.422531,41.802525,公交,八一公园西站(公交站),
123.387016,41.797859,公交,北三路兴工街站(公交站),
123.465897,41.852585,公交,皇姑区政务服务中心(公交站),
123.4021,41.801788,公交,胜利大街北四马路站(公交站),
123.336433,41.761253,公交,惠泽园小区站(公交站),
123.426659,41.80492,公交,市府大路三经街站(公交站),
123.400505,41.920528,公交,沈阳航空航天大学站(公交站),
123.396561,41.823177,公交,昆山路怒江街站(公交站),
123.374771,41.769737,公交,滑翔路凌空二街站(公交站),
123.485313,41.864922,公交,勤生街轩业四路(临时站)(公交站),
123.426178,41.817986,公交,嫩江街昆山路(公交站),
123.482597,41.804543,公交,龙之梦会展中心站(公交站),
123.291397,42.036953,公交,茨榆大队(公交站),
123.366455,41.930431,公交,上蒲河东(公交站),
123.579361,42.035305,公交,小洋河(公交站),
123.485229,41.999084,公交,郎家寺村(公交站),
123.437141,42.050972,公交,营盘(公交站),
123.337807,42.022419,公交,东拉拉屯(公交站),
123.169495,41.972038,公交,老边北(公交站),
123.349106,41.840698,公交,二手车市场(公交站),
123.559952,41.891766,公交,中南陶瓷城(公交站),
123.448059,41.946064,公交,新湖仙林金谷(公交站),
123.308441,41.889465,公交,亚文购物中心(公交站),
123.502693,42.044659,公交,五五村(公交站),
123.212868,41.780422,公交,青华商业管理学校(公交站),
123.622917,41.685242,公交,尚盈丽都(公交站),
123.361343,41.807316,公交,保工街北三路站(公交站),
123.379082,41.794727,公交,云峰街北四路站(公交站),
123.325211,41.792725,公交,南十一路重工街(公交站),
123.337769,41.794788,公交,启工街南十路(公交站),
123.348816,41.803223,公交,卫工街建设大路站(公交站),
123.426399,41.832447,公交,辽宁中医站(公交站),
123.42247,41.782978,公交,领事馆站(公交站),
123.38855,41.813,公交,北一东路65号站(公交站),
123.348267,41.752777,公交,碧桂园公交场站(公交站),
123.470917,41.731823,公交,辽宁省艺术学校(公交站),
123.340607,41.755116,公交,细河南路大通湖街西(公交站),
123.422523,41.812157,公交,皇寺广场站(公交站),
123.372215,41.769428,公交,生日城东站(公交站),
123.502365,41.910572,公交,朱尔屯(公交站),
123.320374,42.04121,公交,光荣西(公交站),
123.374603,42.064819,公交,农场(公交站),
123.236092,41.947605,公交,永光村(公交站),
123.393616,41.931355,公交,瀚博皇家御院(地铁口)(公交站),
123.668068,41.907444,公交,马宋路中木(公交站),
123.421432,41.680611,公交,黑牛财富(公交站),
123.328491,41.833401,公交,中南旭辉和樾(公交站),
123.366631,42.122246,公交,沙岗子村(公交站),
123.318769,42.111688,公交,房身(公交站),
123.538399,41.701214,公交,南岭村委会(公交站),
123.34993,41.691422,公交,吉水暖气(公交站),
123.442238,41.679604,公交,全运三路智慧大街站(公交站),
123.383896,41.79921,公交,北三路云峰街站(公交站),
123.424232,41.794609,公交,沈阳日报社站(公交站),
123.462997,41.841473,公交,金辉天鹅湾(公交站),
123.391876,41.959068,公交,瀚博三期(公交站),
123.452095,41.819813,公交,小北关街二二巷(公交站),
123.354866,41.78812,公交,兴顺街南十路(公交站),
123.386345,41.895802,公交,青城北路怒江北街(公交站),
123.463043,41.763973,公交,文萃路天坛一街(公交站),
123.329948,41.649204,公交,丁香街沙柳路南(公交站),
123.449776,41.916664,公交,蓝湾街陵园北街(公交站),
123.538162,41.74115,公交,苏宁浑南物流一期(公交站),
123.38018,41.901997,公交,文大路甘河街(公交站),
123.538277,41.741215,公交,苏宁浑南物流中心一期(公交站),
123.517952,41.950077,公交,虎石台公交枢纽(公交站),
123.591576,41.946877,公交,丽水湾(公交站),
123.26107,41.730984,公交,小于村委会(公交站),
123.70314,41.982025,公交,南三家子(公交站),
123.465744,41.797337,公交,大东车库站(公交站),
123.455788,41.741783,公交,中国女人街(临时站)(公交站),
123.576546,41.747246,公交,招呼站(公交站),
123.436661,41.787083,公交,顺通食街站(公交站),
123.454239,41.846622,公交,富丽阳光南区(公交站),
123.380486,41.741386,公交,马总花园(公交站),
123.384933,41.854359,公交,北陵法庭(公交站),
123.45797,41.76413,公交,南塔日杂站(公交站),
123.439133,41.814651,公交,惠工广场北站(公交站),
123.387802,41.810013,公交,新湖小区站(公交站),
123.365799,41.772308,公交,盛京医院滑翔院区站(公交站),
123.388283,41.850143,公交,万科四季花城站(公交站),
123.442268,41.761761,公交,科普公园(公交站),
123.379326,41.666908,公交,南京街会展路(公交站),
123.609772,42.032528,公交,水泥厂(公交站),
123.646988,42.094048,公交,依路(公交站),
123.54866,41.952957,公交,古城宜家三期(公交站),
123.29953,41.727123,公交,谟家新村(公交站),
123.334602,41.661884,公交,临湖公园站(公交站),
123.358833,41.886745,公交,雨晴药房(公交站),
123.461464,41.846607,公交,银山路鸭绿巷(公交站),
123.399147,41.785839,公交,市文化宫站(公交站),
123.487061,41.804409,公交,龙之梦丽晶大酒店(公交站),
123.511162,41.83897,公交,沈阳宝钢站(公交站),
123.406364,41.771126,公交,南湖公园西门站(公交站),
123.464249,41.80294,公交,东顺城街北顺城路(公交站),
123.441994,41.795078,公交,大西路奉天街站(公交站),
123.424141,41.818851,公交,昆山路嫩江街站(公交站),
123.414978,41.781147,公交,光荣街十三纬路站(公交站),
123.424614,41.782017,公交,领事馆西站(公交站),
123.333527,41.744427,公交,恒大绿洲站(公交站),
123.366753,41.76067,公交,汪河路阳光100一号路站(公交站),
123.42762,41.769619,公交,沈阳音乐学院站(公交站),
123.368935,41.795815,公交,铁西广场西站(公交站),
123.488335,41.870792,公交,沈阳职业技术学院站(公交站),
123.416809,41.831997,公交,崇山路嘉陵江街站(公交站),
123.454063,41.764248,公交,南塔公园站(公交站),
123.333694,41.828354,公交,北一路重工街站(公交站),
123.449722,41.793148,公交,南顺城路风雨坛街站(公交站),
123.359344,41.771412,公交,南滑翔路腾飞二街站(公交站),
123.491135,41.797508,公交,长安小区站(公交站),
123.378525,41.774757,公交,滑翔三小区站(公交站),
123.354774,41.773449,公交,艳粉新村站(公交站),
123.391411,41.730244,公交,新加坡城站(公交站),
123.42543,41.684448,公交,全运路沈营路站(公交站),
123.412674,41.686356,公交,红椿路高铁二街站(公交站),
123.326622,41.782135,公交,重工街勋业一路(公交站),
123.386772,41.825741,公交,第二十一中学站(公交站),
123.433617,41.840691,公交,省军区北门站(公交站),
123.426926,41.839157,公交,北陵公园站(公交站),
123.407425,41.792603,公交,南京街北二马路(公交站),
123.367767,41.863171,公交,松山路滨江街(公交站),
123.440826,41.782734,公交,西滨河路风雨坛街(公交站),
123.367119,41.795719,公交,铁西广场站(公交站),
123.435707,41.814991,公交,北站站前(公交站),
123.396507,41.745937,公交,长白三街长白北路(公交站),
123.303482,41.767395,公交,星海路黔灵湖街(公交站),
123.443726,41.85096,公交,陵园西街(公交站),
123.34182,41.787754,公交,卫工街南十二路站(公交站),
123.464043,41.808392,公交,白塔路(公交站),
123.346626,41.835407,公交,昆山路宠物市场(公交站),
123.494576,41.634289,公交,桃仙国际机场(公交站),
123.399246,41.792725,公交,沈阳站(公交站),
123.414612,41.658955,公交,创新路沈营大街(公交站),
123.489273,41.830597,公交,新颖宾馆(公交站),
123.511139,41.8134,公交,二零一(公交站),
123.51088,41.828617,公交,铁路物资公司(公交站),
123.257431,41.732735,公交,中央大街二十一号路(公交站),
123.321442,41.831448,公交,黄河汽车公司站(公交站),
123.469093,41.679443,公交,绿城全运村站(公交站),
123.37912,41.895672,公交,青城北路甘河街(公交站),
123.415459,41.888603,公交,沈阳医学院站(公交站),
123.45401,41.682072,公交,智慧二街全运路(公交站),
123.230461,41.74395,公交,滨河社区b区(公交站),
123.238274,41.740662,公交,沃达花园酒店(公交站),
123.432266,41.922142,公交,蒲城路蓝湾街(公交站),
123.392204,41.893009,公交,怒江北街青城山路(公交站),
123.354073,41.867973,公交,美的城西门(公交站),
123.335144,41.782978,公交,劳动公园西站(公交站),
123.407341,41.748569,公交,丽岛路长白四街(公交站),
123.516808,41.81295,公交,二五(公交站),
123.312035,41.773468,公交,洪湖一街商业一街(公交站),
123.328758,41.76445,公交,大通湖街仙女湖路(公交站),
123.389046,41.876892,公交,华邑世纪城二期(公交站),
123.512444,41.697285,公交,全运南路(公交站),
123.49408,41.63311,公交,桃仙机场T3航站楼(公交站),
123.401474,41.876431,公交,千山西路规划街(公交站),
123.489815,41.745346,公交,恒达路朗明街西(公交站),
123.322479,41.782284,公交,壮工街勋业三路(公交站),
123.393776,41.89241,公交,青城山路怒江北街(公交站),
123.506607,41.837059,公交,联合路东建街站(公交站),
123.41169,41.837067,公交,长江街泰山路站(公交站),
123.378372,41.778355,公交,诗波特小区站(公交站),
123.362,41.789875,公交,南八路中国家具城(公交站),
123.372406,41.917267,公交,怒江北街正良五路(公交站),
123.546555,41.701496,公交,孙家寨(公交站),
122.765671,41.51656,公交,区政府(公交站),
123.492126,41.846012,公交,二台子街观泉路站(公交站),
123.437004,41.821213,公交,沈阳北站北站(公交站),
123.47744,41.853306,公交,望花立交桥北站(公交站),
123.385834,41.813503,公交,重型文化广场站(公交站),
123.387154,41.765282,公交,砂山货运站(公交站),
123.435081,41.767372,公交,彩电中心(公交站),
123.364815,41.868969,公交,赤山路滨江街东(公交站),
123.391678,41.723747,公交,格林英郡(公交站),
123.442268,41.761845,公交,科普公园东(公交站),
123.396034,41.785732,公交,太原街南五马路站(公交站),
123.388924,41.824543,公交,华山路淮河街站(公交站),
